City_ID,City,Country,Lat,Lng,Max Temp,Humidity,Cloudiness,Wind Speed,Description
0,Hilo,US,19.7297,-155.09,78.24,85,19,1.99,few clouds
1,Cape Town,ZA,-33.9258,18.4232,68.41,80,20,18.41,few clouds
2,Mataura,NZ,-46.1927,168.8643,66.47,41,56,1.52,broken clouds
3,Airai,TL,-8.9266,125.4092,66.42,75,42,2.73,scattered clouds
4,Chuy,UY,-33.6971,-53.4616,59.83,62,2,6.67,clear sky
5,Gweta,BW,-20.1833,25.2333,76.17,41,43,8.99,scattered clouds
6,Hermanus,ZA,-34.4187,19.2345,65.8,81,61,18.45,broken clouds
7,Hue,VN,16.4667,107.6,64.51,94,75,8.05,mist
8,Jamestown,US,42.097,-79.2353,17.1,96,99,3.76,overcast clouds
9,Camacupa,AO,-12.0167,17.4833,60.42,95,94,2.42,light rain
10,Ushuaia,AR,-54.8,-68.3,38.86,81,75,16.11,broken clouds
11,Kulhudhuffushi,MV,6.6221,73.07,79.86,77,100,4.29,overcast clouds
12,Charagua,BO,-19.8,-63.2167,66.85,73,81,0.36,broken clouds
13,Albany,US,42.6001,-73.9662,22.75,55,96,1.99,overcast clouds
14,Aksu,CN,41.1231,80.2644,26.8,42,31,4.85,scattered clouds
15,Hambantota,LK,6.1241,81.1185,75.04,85,85,14.41,overcast clouds
16,Polovinnoye,RU,54.7914,65.9864,5.23,97,100,3.62,overcast clouds
17,Kungurtug,RU,50.5994,97.5228,-25.46,97,80,1.7,broken clouds
18,Rikitea,PF,-23.1203,-134.9692,78.73,71,56,13.89,broken clouds
19,Sovetskiy,RU,61.3614,63.5842,-14.37,100,68,2.95,broken clouds
20,Jining,CN,35.405,116.5814,34.77,79,96,12.17,overcast clouds
21,Busselton,AU,-33.65,115.3333,68.04,59,0,12.1,clear sky
22,Port-Cartier,CA,50.0334,-66.8654,-9.42,93,73,7.58,broken clouds
23,Libreville,GA,0.3925,9.4537,79.02,82,99,6.93,overcast clouds
24,Alofi,NU,-19.0595,-169.9187,80.94,73,100,10.74,overcast clouds
25,Torbay,CA,47.6666,-52.7314,34.57,77,75,14.97,broken clouds
26,Port Alfred,ZA,-33.5906,26.891,69.57,88,59,10.94,light rain
27,Kruisfontein,ZA,-34.0033,24.7314,66.94,85,38,4.94,light rain
28,Maxixe,MZ,-23.8597,35.3472,74.8,87,1,6.38,clear sky
29,Punta Arenas,CL,-53.15,-70.9167,48.31,43,20,20.71,few clouds
30,Saskylakh,RU,71.9167,114.0833,-17.73,90,42,3.06,scattered clouds
31,Bluff,NZ,-46.6,168.3333,66.79,64,52,1.63,broken clouds
32,Yanam,IN,16.7333,82.2167,65.71,83,6,3.36,clear sky
33,Barrow,US,71.2906,-156.7887,-23.51,100,100,8.3,overcast clouds
34,Bredasdorp,ZA,-34.5322,20.0403,65.52,72,97,8.05,overcast clouds
35,Teahupoo,PF,-17.8333,-149.2667,82.36,76,80,18.21,light rain
36,Pevek,RU,69.7008,170.3133,-16.91,97,100,8.66,overcast clouds
37,Cidreira,BR,-30.1811,-50.2056,68.67,91,93,3.18,overcast clouds
38,Khatanga,RU,71.9667,102.5,-27.4,98,77,2.24,broken clouds
39,Gladstone,AU,-23.85,151.25,84.78,61,36,19.57,scattered clouds
40,New Norfolk,AU,-42.7826,147.0587,62.92,68,96,3.71,overcast clouds
41,Acarau,BR,-2.8856,-40.12,79.66,80,18,14.92,few clouds
42,Arequipa,PE,-16.3989,-71.535,61.05,60,89,4.9,overcast clouds
43,Togur,RU,58.3631,82.8265,6.91,94,100,11.61,light snow
44,Longyearbyen,SJ,78.2186,15.6401,15.64,92,100,3.44,light snow
45,Meulaboh,ID,4.1363,96.1285,76.32,87,96,4.25,overcast clouds
46,Lorengau,PG,-2.0226,147.2712,83.32,74,96,1.97,overcast clouds
47,Atuona,PF,-9.8,-139.0333,78.01,77,19,13.62,light rain
48,Esperance,AU,-33.8667,121.9,64.24,70,36,12.71,scattered clouds
49,Puerto Ayora,EC,-0.7393,-90.3518,76.55,90,89,1.01,overcast clouds
50,Qiongshan,CN,20.0058,110.3542,64.22,89,100,10.98,overcast clouds
51,Castro,BR,-24.7911,-50.0119,65.86,90,60,0.83,broken clouds
52,Vaini,TO,-21.2,-175.2,80.73,72,92,17.83,overcast clouds
53,Porto Novo,BJ,6.4965,2.6036,80.31,81,25,8.55,scattered clouds
54,Along,IN,28.1667,94.7667,42.39,62,0,2.1,clear sky
55,Mar Del Plata,AR,-38.0023,-57.5575,66.22,73,0,3.44,clear sky
56,Dauriya,RU,49.9333,116.8667,-29.42,100,69,0.85,broken clouds
57,Nanortalik,GL,60.1432,-45.2371,24.8,95,100,24.81,snow
58,Nikolskoye,RU,59.7035,30.7861,35.87,92,100,12.01,light snow
59,Tacoronte,ES,28.4769,-16.4102,58.14,68,40,15.01,scattered clouds
60,Khakhea,BW,-24.6895,23.494,73.58,38,8,7.92,clear sky
61,Arraial Do Cabo,BR,-22.9661,-42.0278,75.72,91,8,12.26,clear sky
62,Kapaa,US,22.0752,-159.319,78.48,63,44,5.99,scattered clouds
63,Lompoc,US,34.6391,-120.4579,83.08,57,0,3.0,clear sky
64,Ust-Nera,RU,64.5667,143.2,-31.72,95,58,1.19,broken clouds
65,Adrar,MR,20.5022,-10.0711,61.95,22,74,10.74,broken clouds
66,Lagoa,PT,39.05,-27.9833,56.71,59,97,5.12,overcast clouds
67,Saint Anthony,US,45.0205,-93.218,9.25,62,100,10.36,overcast clouds
68,Avarua,CK,-21.2078,-159.775,82.45,78,100,3.44,overcast clouds
69,Chokurdakh,RU,70.6333,147.9167,-11.97,95,97,8.61,overcast clouds
70,Los Llanos De Aridane,ES,28.6585,-17.9182,60.55,73,20,8.05,few clouds
71,Severo-Kurilsk,RU,50.6789,156.125,25.84,65,22,14.16,few clouds
72,Vagur,FO,61.4732,-6.8119,36.63,76,100,32.75,overcast clouds
73,Georgetown,MY,5.4112,100.3354,78.89,91,40,3.44,scattered clouds
74,Atasu,KZ,48.6814,71.6433,24.26,96,100,11.56,overcast clouds
75,Shetpe,KZ,44.1667,52.1167,27.97,75,19,8.1,few clouds
76,Inyonga,TZ,-6.7167,32.0667,64.06,94,100,2.82,overcast clouds
77,Chulman,RU,56.8479,124.9104,-41.57,100,98,0.47,overcast clouds
78,East London,ZA,-33.0153,27.9116,73.27,79,89,12.28,overcast clouds
79,Kieta,PG,-6.2167,155.6333,83.93,71,83,3.56,light rain
80,Tuatapere,NZ,-46.1333,167.6833,67.82,50,55,2.46,broken clouds
81,Ponta Do Sol,PT,32.6667,-17.1,61.43,61,89,1.05,overcast clouds
82,Ardabil,IR,38.2498,48.2933,27.32,91,98,5.91,light snow
83,Bengkulu,ID,-3.8004,102.2655,76.12,85,100,2.44,overcast clouds
84,Pochutla,MX,15.7432,-96.4661,85.82,57,65,4.56,broken clouds
85,Payo,ID,-3.7508,103.6372,72.95,94,97,1.83,overcast clouds
86,Saint-Philippe,RE,-21.3585,55.7679,78.39,87,34,12.93,scattered clouds
87,Port Hedland,AU,-20.3167,118.5667,87.85,58,10,14.97,clear sky
88,Cabo San Lucas,MX,22.8909,-109.9124,82.62,47,98,5.73,overcast clouds
89,Cherskiy,RU,68.75,161.3,-24.03,97,97,7.2,overcast clouds
90,Takaka,NZ,-40.85,172.8,67.55,57,76,5.84,broken clouds
91,Bodaybo,RU,57.8506,114.1933,-40.31,100,56,1.83,broken clouds
92,Kavaratti,IN,10.5669,72.642,80.33,72,31,5.91,scattered clouds
93,Bhatkal,IN,13.9667,74.5667,73.53,71,0,3.71,clear sky
94,Fare,PF,-16.7,-151.0167,81.12,73,100,13.98,light rain
95,Mattru,SL,7.6244,-11.8332,74.93,94,36,2.59,light rain
96,Megion,RU,61.0296,76.1136,-4.99,97,98,9.89,overcast clouds
97,Hithadhoo,MV,-0.6,73.0833,81.84,75,72,11.72,broken clouds
98,Bambanglipuro,ID,-7.95,110.2833,62.6,86,100,3.67,light rain
99,Ancud,CL,-41.8697,-73.8203,59.0,90,11,2.35,few clouds
100,Madimba,TZ,-10.4,40.3333,77.32,91,66,4.85,light rain
101,Northam,GB,51.0333,-4.2167,46.26,88,100,17.83,overcast clouds
102,Padang,ID,-0.9492,100.3543,71.65,77,100,4.25,overcast clouds
103,Tamiahua,MX,21.2667,-97.45,59.05,54,34,9.75,scattered clouds
104,Provideniya,RU,64.3833,-173.3,-3.64,71,0,8.99,clear sky
105,Sabang,ID,5.8933,95.3214,81.72,72,34,9.19,scattered clouds
106,Kodiak,US,57.79,-152.4072,40.51,60,0,8.05,clear sky
107,Tuktoyaktuk,CA,69.4541,-133.0374,-32.8,68,75,6.91,broken clouds
108,Yeppoon,AU,-23.1333,150.7333,82.18,74,49,20.83,scattered clouds
109,Znamenskoye,RU,57.1281,73.8282,2.35,98,99,4.85,overcast clouds
110,Margate,GB,51.3813,1.3862,49.96,88,100,8.99,light rain
111,Chumikan,RU,54.7183,135.315,-7.56,89,78,5.26,broken clouds
112,Clyde River,CA,70.4692,-68.5914,-18.17,76,100,23.02,haze
113,Qaanaaq,GL,77.484,-69.3632,-7.8,74,99,5.99,overcast clouds
114,Lavrentiya,RU,65.5833,-171.0,-17.07,92,47,3.18,scattered clouds
115,Abu Dhabi,AE,24.4667,54.3667,63.97,78,20,6.91,few clouds
116,Mahajanga,MG,-15.7167,46.3167,76.68,90,17,9.66,light rain
117,Lazaro Cardenas,MX,17.9583,-102.2,81.97,56,88,4.76,overcast clouds
118,Port Antonio,JM,18.18,-76.4612,78.94,75,43,6.42,scattered clouds
119,Mandalgovi,MN,45.7625,106.2708,-7.96,89,40,7.47,scattered clouds
120,Gashua,NG,12.871,11.0482,68.88,14,2,8.14,clear sky
121,Tura,IN,25.5198,90.2201,53.24,75,0,4.72,clear sky
122,Olonets,RU,60.9847,32.9698,30.34,97,100,14.85,snow
123,Egvekinot,RU,66.3167,-179.1667,-16.15,91,66,5.7,broken clouds
124,Hualmay,PE,-11.0964,-77.6139,72.48,76,22,10.4,few clouds
125,Bubaque,GW,11.2833,-15.8333,77.94,67,3,10.07,clear sky
126,Buchanan,LR,5.8808,-10.0467,78.84,87,42,7.43,scattered clouds
127,Solnechnyy,RU,50.7214,136.6319,10.24,91,99,5.08,overcast clouds
128,Toora-Khem,RU,52.4675,96.11,-31.85,100,74,0.76,broken clouds
129,Hobart,AU,-42.8794,147.3294,63.27,77,100,10.36,overcast clouds
130,Marawi,PH,7.9986,124.2928,67.64,79,100,1.14,overcast clouds
131,Cermik,TR,38.1361,39.4493,30.69,58,97,4.27,overcast clouds
132,Iqaluit,CA,63.7506,-68.5145,-15.07,64,100,6.91,light snow
133,Klaksvik,FO,62.2266,-6.589,34.72,67,100,27.98,overcast clouds
134,Tsabong,BW,-26.0217,22.401,79.14,32,51,7.81,broken clouds
135,Rio Gallegos,AR,-51.6226,-69.2181,51.85,28,20,26.46,few clouds
136,Baculin,PH,7.4525,126.5842,80.64,73,85,4.94,overcast clouds
137,Sobolevo,RU,54.4299,31.8996,21.79,88,62,11.54,broken clouds
138,Sri Aman,MY,1.2376,111.4621,74.44,97,94,1.54,overcast clouds
139,Odessa,UA,46.4775,30.7326,24.73,100,74,2.24,mist
140,Puro,PH,12.4841,123.3827,78.73,80,92,10.8,overcast clouds
141,Dikson,RU,73.5069,80.5464,-4.86,86,100,24.11,overcast clouds
142,Shenjiamen,CN,29.9576,122.298,43.95,75,45,17.38,scattered clouds
143,Bogorodskoye,RU,56.55,37.8833,28.09,83,100,12.26,overcast clouds
144,Narsaq,GL,60.9167,-46.05,23.22,96,100,5.28,light snow
145,Chernyshevskiy,RU,63.0128,112.4714,-24.59,100,85,1.83,overcast clouds
146,Ketchikan,US,55.3422,-131.6461,48.18,87,100,3.44,light rain
147,Yar-Sale,RU,66.8333,70.8333,-18.29,99,100,7.94,overcast clouds
148,Codrington,AU,-38.2667,141.9667,69.22,63,66,9.98,broken clouds
149,Bethel,US,41.3712,-73.414,28.02,69,100,10.0,overcast clouds
150,Galesong,ID,-5.3166,119.3661,77.02,79,74,3.65,broken clouds
151,Beringovskiy,RU,63.05,179.3167,-21.37,94,20,8.7,few clouds
152,Faanui,PF,-16.4833,-151.75,80.92,75,100,14.56,light rain
153,Norman Wells,CA,65.282,-126.8329,-2.99,94,100,5.37,overcast clouds
154,Tiksi,RU,71.6872,128.8694,-13.07,92,10,11.41,clear sky
155,Durban,ZA,-29.8579,31.0292,78.93,82,100,7.0,overcast clouds
156,Caravelas,BR,-17.7125,-39.2481,75.78,88,73,4.94,broken clouds
157,Saldanha,ZA,-33.0117,17.9442,66.25,90,0,13.96,clear sky
158,Praya,CV,14.9215,-23.5087,71.94,75,69,16.58,broken clouds
159,Beisfjord,NO,68.3751,17.5988,30.25,96,99,5.03,light snow
160,Port Lincoln,AU,-34.7333,135.8667,70.03,73,87,10.83,overcast clouds
161,Ornskoldsvik,SE,63.2909,18.7153,34.75,93,42,12.66,scattered clouds
162,Pitimbu,BR,-7.4706,-34.8086,82.99,75,5,12.88,clear sky
163,Sao Jose Da Coroa Grande,BR,-8.8978,-35.1478,80.78,73,29,12.62,scattered clouds
164,Fort Nelson,CA,58.8053,-122.7002,13.41,95,96,2.89,overcast clouds
165,Khorixas,NA,-20.3667,14.9667,69.22,77,100,8.57,overcast clouds
166,Troitsko-Pechorsk,RU,62.7084,56.1964,-2.02,100,96,1.28,overcast clouds
167,Burnie,AU,-41.0667,145.9167,74.95,54,86,4.23,overcast clouds
168,Hannibal,US,39.7084,-91.3585,23.0,53,0,3.44,clear sky
169,Khorramabad,IR,33.4878,48.3558,42.84,54,0,5.01,clear sky
170,Salalah,OM,17.0151,54.0924,73.49,18,0,21.85,clear sky
171,Salacgriva,LV,57.7536,24.3581,33.91,80,100,17.45,overcast clouds
172,Miandrivazo,MG,-19.5167,45.4667,76.84,86,68,1.86,broken clouds
173,Altoona,US,40.5187,-78.3947,25.02,66,95,4.0,overcast clouds
174,Chitipa,MW,-9.7024,33.2697,61.43,94,96,1.88,overcast clouds
175,Cozumel,MX,20.5083,-86.9458,77.07,74,0,10.36,clear sky
176,Sitka,US,57.0531,-135.33,40.89,87,100,9.22,overcast clouds
177,Camocim,BR,-2.9022,-40.8411,79.27,84,19,13.71,few clouds
178,Port Hawkesbury,CA,45.6169,-61.3485,23.92,85,100,4.61,light snow
179,Donnacona,CA,46.6804,-71.7239,-10.28,96,67,4.43,broken clouds
180,Spas-Demensk,RU,54.4122,34.0226,20.86,87,86,10.09,overcast clouds
181,Brovst,DK,57.0956,9.528,41.13,87,75,11.5,moderate rain
182,Tanout,NE,14.9709,8.8879,65.8,12,0,10.65,clear sky
183,Alyangula,AU,-13.8483,136.4192,85.84,62,19,15.73,few clouds
184,Lamar,US,33.6668,-95.5836,55.56,26,0,6.91,clear sky
185,Talnakh,RU,69.4865,88.3972,-8.01,70,11,8.61,few clouds
186,Irbil,IQ,36.1926,44.0106,48.83,48,14,2.19,few clouds
187,Calama,CL,-22.4667,-68.9333,62.6,27,38,10.92,scattered clouds
188,Qom,IR,34.6401,50.8764,41.63,57,0,5.28,clear sky
189,Balangiga,PH,11.1097,125.3875,79.88,82,99,9.75,overcast clouds
190,Charleston,US,32.7766,-79.9309,59.11,55,100,12.66,overcast clouds
191,Lasa,IT,46.6166,10.7002,25.02,70,1,1.99,clear sky
192,Thompson,CA,55.7435,-97.8558,-10.66,99,99,3.85,overcast clouds
193,Cap Malheureux,MU,-19.9842,57.6142,81.46,78,85,7.0,overcast clouds
194,Carnarvon,AU,-24.8667,113.6333,82.56,73,3,4.79,clear sky
195,Cairns,AU,-16.9167,145.7667,84.29,83,100,5.75,overcast clouds
196,Kenai,US,60.5544,-151.2583,35.02,94,100,8.05,mist
197,Shama,CN,33.6102,104.2852,27.09,55,98,3.58,overcast clouds
198,Kalmunai,LK,7.4167,81.8167,76.53,81,98,8.46,overcast clouds
199,Eureka,US,40.8021,-124.1637,69.67,77,97,2.28,overcast clouds
200,Seydi,TM,39.4816,62.9137,40.87,42,34,9.78,scattered clouds
201,Butaritari,KI,3.0707,172.7902,80.85,78,80,12.86,moderate rain
202,Lebu,CL,-37.6167,-73.65,59.31,89,79,5.99,broken clouds
203,Pacific Grove,US,36.6177,-121.9166,82.6,79,3,5.01,clear sky
204,Raudeberg,NO,61.9875,5.1352,38.07,96,100,1.99,overcast clouds
205,Phoenix,US,33.4484,-112.074,82.92,11,0,3.44,clear sky
206,Luderitz,NA,-26.6481,15.1594,72.48,63,1,9.86,clear sky
207,Kuala Terengganu,MY,5.3302,103.1408,75.65,89,27,2.42,scattered clouds
208,Asheboro,US,35.7079,-79.8136,37.9,78,40,1.99,scattered clouds
209,Namatanai,PG,-3.6667,152.4333,84.63,67,99,6.69,overcast clouds
210,Port Hardy,CA,50.6996,-127.4199,48.76,70,100,8.08,overcast clouds
211,Shebunino,RU,46.4339,141.8603,23.22,78,84,11.83,broken clouds
212,Atambua,ID,-9.1061,124.8925,77.18,79,57,1.97,broken clouds
213,New Ulm,US,44.3125,-94.4605,12.16,72,100,12.66,overcast clouds
214,Wismar,DE,53.9,11.4667,44.13,78,100,5.99,overcast clouds
215,Saint George,US,37.1041,-113.5841,72.07,14,0,0.85,clear sky
216,Qaqortoq,GL,60.7167,-46.0333,23.5,95,100,12.1,light snow
217,Udachnyy,RU,66.4167,112.4,-22.56,90,72,1.52,broken clouds
218,Vila Do Maio,CV,15.1333,-23.2167,72.93,74,82,16.87,broken clouds
219,Guozhen,CN,34.3659,107.359,37.44,75,45,1.57,scattered clouds
220,Littlehampton,GB,50.8069,-0.5378,50.04,90,100,23.13,moderate rain
221,Pyay,MM,18.8167,95.2167,59.72,41,49,6.15,scattered clouds
222,Sioux Lookout,CA,50.1001,-91.917,-1.82,91,100,3.6,overcast clouds
223,Upernavik,GL,72.7868,-56.1549,-4.31,95,100,14.29,overcast clouds
224,Bintulu,MY,3.1667,113.0333,76.46,94,98,3.89,overcast clouds
225,Yellowknife,CA,62.456,-114.3525,-13.45,68,20,2.3,few clouds
226,Carballo,ES,43.213,-8.691,50.86,90,49,7.76,scattered clouds
227,Disa,IN,24.25,72.1667,59.13,29,0,2.91,clear sky
228,Fortuna,US,40.5982,-124.1573,71.19,100,100,11.5,overcast clouds
229,Antalaha,MG,-14.9003,50.2788,73.0,92,33,4.85,scattered clouds
230,Prieska,ZA,-29.6641,22.7474,77.97,46,46,11.83,scattered clouds
231,Veraval,IN,20.9,70.3667,65.5,66,3,11.27,clear sky
232,Linxia,CN,35.6003,103.2064,11.79,82,68,2.57,broken clouds
233,Byron Bay,AU,-28.65,153.6167,77.88,83,77,10.67,broken clouds
234,Baykit,RU,61.67,96.37,-21.01,100,82,3.74,broken clouds
235,Bairiki,KI,1.3292,172.9752,81.72,72,100,13.18,overcast clouds
236,Roald,NO,62.5833,6.1333,37.9,93,100,21.85,overcast clouds
237,Batemans Bay,AU,-35.7167,150.1833,83.19,45,81,6.44,broken clouds
238,Tignere,CM,7.3667,12.65,67.75,19,45,2.55,scattered clouds
239,Krasnoselkup,RU,65.7,82.4667,-3.21,94,73,13.35,broken clouds
240,Alakurtti,RU,66.9672,30.3491,17.64,96,100,3.0,light snow
241,Oum Hadjer,TD,13.2954,19.6966,74.86,12,97,9.17,overcast clouds
242,Maragogi,BR,-9.0122,-35.2225,80.65,73,35,12.8,scattered clouds
243,Kangaatsiaq,GL,68.3065,-53.4641,-7.94,94,83,20.78,broken clouds
244,Niceville,US,30.5169,-86.4822,51.91,35,0,10.36,clear sky
245,Kumbo,CM,6.2,10.6667,62.33,22,45,5.68,scattered clouds
246,Hami,CN,42.8,93.45,24.35,45,32,4.74,scattered clouds
247,Geraldton,AU,-28.7667,114.6,77.41,78,75,5.75,broken clouds
248,Mahebourg,MU,-20.4081,57.7,81.25,89,40,9.22,scattered clouds
249,Kralendijk,BQ,12.15,-68.2667,78.78,73,40,14.97,scattered clouds
250,Coquimbo,CL,-29.9533,-71.3436,66.07,74,3,5.41,clear sky
251,Yulara,AU,-25.2406,130.9889,86.2,13,4,10.4,clear sky
252,Belawan,ID,3.7755,98.6832,76.33,92,78,4.74,broken clouds
253,Grand Gaube,MU,-20.0064,57.6608,81.37,78,94,7.0,overcast clouds
254,Quatre Cocos,MU,-20.2078,57.7625,81.09,87,89,15.32,light rain
255,Rocha,UY,-34.4833,-54.3333,57.92,67,3,5.1,clear sky
256,Capoeiras,BR,-8.7347,-36.6267,69.98,79,87,12.86,overcast clouds
257,Karaidel,RU,55.8337,56.9069,1.9,100,100,2.42,overcast clouds
258,Half Moon Bay,US,37.4636,-122.4286,81.52,46,40,3.44,scattered clouds
259,Alugan,PH,12.2188,125.4808,79.59,78,98,12.01,overcast clouds
260,Kaitangata,NZ,-46.2817,169.8464,60.93,66,23,5.97,few clouds
261,Batagay-Alyta,RU,67.8006,130.4114,-11.72,79,100,4.54,overcast clouds
262,Dongsheng,CN,39.8161,109.9776,9.3,58,85,1.66,overcast clouds
263,Saint-Georges,GD,12.0564,-61.7485,77.43,71,17,14.76,few clouds
264,Mount Pleasant,US,32.7941,-79.8626,59.09,55,100,10.36,overcast clouds
265,Tilichiki,RU,60.4667,166.1,-14.22,91,10,10.42,clear sky
266,Bambous Virieux,MU,-20.3428,57.7575,81.21,89,40,9.22,light rain
267,Abu Samrah,SY,35.3029,37.1841,46.45,72,1,7.9,clear sky
268,Lata,PT,40.1629,-8.3327,53.82,93,57,3.33,broken clouds
269,Keti Bandar,PK,24.1447,67.4497,67.57,63,0,7.11,clear sky
270,Waddan,LY,29.1614,16.139,51.76,46,0,10.33,clear sky
271,Dangara,IN,29.6799,75.8931,49.73,73,0,5.06,clear sky
272,Ihosy,MG,-22.4,46.1167,68.16,85,58,7.07,broken clouds
273,Ahipara,NZ,-35.1667,173.1667,69.53,56,81,9.19,broken clouds
274,Marsa Matruh,EG,31.3525,27.2453,56.23,70,0,8.19,clear sky
275,Macomb,US,40.4592,-90.6718,15.87,67,0,6.91,clear sky
276,Mapiripan,CO,2.8892,-72.1256,82.36,50,90,5.1,overcast clouds
277,Westport,US,41.1415,-73.3579,29.75,71,100,10.36,overcast clouds
278,Haines Junction,CA,60.7522,-137.5108,20.89,94,100,1.05,overcast clouds
279,Sadovyy,RU,53.3,34.3333,21.76,92,84,11.18,broken clouds
280,Vardo,NO,70.3705,31.1107,24.17,91,100,20.87,light snow
281,Viedma,AR,-40.8135,-62.9967,80.47,22,1,3.76,clear sky
282,Maceio,BR,-9.6658,-35.7353,81.19,75,64,14.16,broken clouds
283,Suozhen,CN,36.9539,118.1047,28.09,82,99,9.17,overcast clouds
284,Tezu,IN,27.9167,96.1667,51.57,42,0,4.94,clear sky
285,Gamba,GA,-2.65,10.0,77.34,86,100,3.31,overcast clouds
286,Deputatskiy,RU,69.3,139.9,-11.94,94,78,5.19,broken clouds
287,Port Elizabeth,ZA,-33.918,25.5701,68.59,86,43,7.56,light rain
288,Yatou,CN,37.15,122.3833,33.13,92,100,17.56,light snow
289,Kidal,ML,18.4411,1.4078,68.13,14,22,10.67,few clouds
290,Groningen,NL,53.25,6.75,51.03,69,100,18.41,overcast clouds
291,Jampur,PK,29.6441,70.5954,56.01,39,2,9.86,clear sky
292,Dicabisagan,PH,17.0818,122.4157,77.49,85,84,5.73,broken clouds
293,Talcahuano,CL,-36.7167,-73.1167,60.24,84,64,9.35,broken clouds
294,Angahuan,MX,19.55,-102.1833,53.1,51,99,1.19,overcast clouds
295,Muros,ES,42.7762,-9.0603,53.24,90,18,18.66,few clouds
296,Jiazi,CN,22.8779,116.067,57.6,83,97,10.6,overcast clouds
297,Ilhabela,BR,-23.7781,-45.3581,74.95,89,46,8.57,scattered clouds
298,Dingle,PH,10.9995,122.6711,78.48,83,91,7.99,overcast clouds
299,Salmo,CA,49.1999,-117.2689,41.88,73,81,1.99,broken clouds
300,Dmitriyevka,RU,54.75,55.3333,11.48,100,95,4.09,overcast clouds
301,Taoudenni,ML,22.6783,-3.9836,61.54,26,0,10.47,clear sky
302,Tabou,CI,4.423,-7.3528,76.75,89,71,2.77,light rain
303,Luanda,AO,-8.8368,13.2343,76.86,85,100,2.04,overcast clouds
304,Ribeira Grande,PT,38.5167,-28.7,58.03,69,100,9.31,overcast clouds
305,Eydhafushi,MV,5.1033,73.0708,80.89,76,92,7.81,light rain
306,Sorland,NO,67.667,12.6934,33.96,53,98,23.0,light snow
307,Hit,IQ,33.6416,42.8251,54.23,42,0,8.79,clear sky
308,Teguldet,RU,57.3064,88.1667,-0.56,94,69,9.66,broken clouds
309,Takoradi,GH,4.8845,-1.7554,78.75,85,57,6.33,light rain
310,Vila Velha,BR,-20.3297,-40.2925,75.15,97,100,3.44,overcast clouds
311,Taltal,CL,-25.4,-70.4833,68.4,76,20,4.59,few clouds
312,Waterford,US,42.7023,-83.4027,16.72,72,75,6.91,broken clouds
313,Mao,ES,39.8885,4.2658,54.16,76,75,11.5,broken clouds
314,Kutum,SD,14.2,24.6667,60.08,18,7,9.04,clear sky
315,Rognan,NO,67.0953,15.3878,30.88,90,99,8.68,snow
316,Hovd,MN,48.0056,91.6419,-13.97,77,25,3.56,scattered clouds
317,Saint-Louis,SN,16.3333,-15.0,71.08,16,54,9.64,broken clouds
318,Erdenet,MN,49.0333,104.0833,-15.99,99,100,0.63,overcast clouds
319,Vallenar,CL,-28.5708,-70.7581,70.7,49,0,4.16,clear sky
320,Victor Harbor,AU,-35.5667,138.6167,85.8,80,27,9.22,scattered clouds
321,Maniitsoq,GL,65.4167,-52.9,1.27,88,100,8.46,overcast clouds
322,Bereda,ES,43.2686,-7.5406,46.92,100,97,7.16,light rain
323,Kloulklubed,PW,7.0419,134.2556,79.3,82,98,21.68,overcast clouds
324,Wanxian,CN,30.8039,108.3897,45.39,80,44,3.67,scattered clouds
325,Ajdabiya,LY,30.7554,20.2263,53.24,75,0,6.73,clear sky
326,Nome,US,64.5011,-165.4064,-5.73,65,0,0.0,clear sky
327,Broome,US,42.2506,-75.833,18.63,68,40,10.36,scattered clouds
328,Sorong,ID,-0.8833,131.25,78.33,88,93,7.4,overcast clouds
329,Puerto Escondido,MX,15.85,-97.0667,85.03,70,75,5.75,broken clouds
330,Bonfim,BR,3.0833,-59.95,84.07,57,87,10.36,overcast clouds
331,Samfya,ZM,-11.3649,29.5565,63.9,96,98,6.67,light rain
332,Lugovoy,KZ,42.9472,72.7644,29.73,75,100,3.96,overcast clouds
333,Malanje,AO,-9.5402,16.341,63.64,95,100,2.17,light rain
334,Aquiraz,BR,-3.9014,-38.3911,83.17,83,15,9.33,few clouds
335,Galle,LK,6.0367,80.217,73.99,86,97,5.61,overcast clouds
336,Touros,BR,-5.1989,-35.4608,80.4,75,6,13.31,clear sky
337,Amahai,ID,-3.3333,128.9167,78.39,83,100,2.64,overcast clouds
338,Machico,PT,32.7,-16.7667,61.43,63,40,13.8,scattered clouds
339,Sokoto,NG,13.0609,5.239,72.97,12,10,10.09,clear sky
340,Rundu,NA,-17.9333,19.7667,66.36,85,83,2.66,broken clouds
341,Sao Filipe,CV,14.8961,-24.4956,73.71,68,64,9.98,broken clouds
342,Gien,FR,47.6933,2.6309,52.45,68,100,20.67,overcast clouds
343,Osakarovka,KZ,50.565,72.5692,19.42,96,97,7.27,overcast clouds
344,Kajaani,FI,64.2273,27.7285,32.05,100,100,8.05,overcast clouds
345,Makakilo City,US,21.3469,-158.0858,80.92,46,75,14.97,broken clouds
346,Manicore,BR,-5.8092,-61.3003,73.18,98,99,0.96,overcast clouds
347,Krasnyy Chikoy,RU,50.3643,108.7512,-31.05,100,57,1.9,broken clouds
348,Kota Kinabalu,MY,5.9749,116.0724,76.98,88,20,6.91,few clouds
349,Aripuana,BR,-9.1667,-60.6333,72.79,99,96,0.72,overcast clouds
350,Mareeba,AU,-17.0,145.4333,80.44,71,27,7.38,scattered clouds
351,Melekhovo,RU,56.2773,41.2935,24.66,94,100,8.63,light snow
352,Boa Vista,BR,2.8197,-60.6733,85.17,51,100,5.53,overcast clouds
353,Makat,KZ,47.6469,53.3463,22.95,85,6,16.93,clear sky
354,Brae,GB,60.3964,-1.353,40.91,89,90,15.77,overcast clouds
355,Mizdah,LY,31.4451,12.9801,49.57,57,55,8.68,broken clouds
356,Miri,MY,4.4148,114.0089,75.9,95,98,4.12,overcast clouds
357,Roma,US,43.2128,-75.4557,17.96,71,100,8.05,overcast clouds
358,Ruwi,OM,23.5996,58.5507,67.69,66,56,14.7,broken clouds
359,Bontang,ID,0.1333,117.5,78.13,84,94,1.45,overcast clouds
360,Novoagansk,RU,61.9449,76.6625,-8.57,99,83,7.31,broken clouds
361,Omsukchan,RU,62.5333,155.8,-20.06,97,45,3.94,scattered clouds
362,Sao Joao Da Barra,BR,-21.6403,-41.0511,76.24,90,3,11.12,clear sky
363,Ulaangom,MN,49.9811,92.0667,-29.74,96,94,3.0,overcast clouds
364,Nauta,PE,-4.5061,-73.5757,74.43,91,91,2.64,overcast clouds
365,Morondava,MG,-20.2833,44.2833,79.79,85,66,4.18,light rain
366,Itaueira,BR,-7.6033,-43.0256,73.92,89,100,1.43,light rain
367,Pingliang,CN,35.5392,106.6861,18.3,87,25,4.56,scattered clouds
368,Laukaa,RU,58.7372,29.8453,30.61,90,100,11.86,snow
369,Horta,PT,38.5333,-28.6333,57.33,71,100,7.52,overcast clouds
370,Kalangala,UG,-0.3089,32.225,73.27,71,90,3.42,light rain
371,Ati,TD,13.2154,18.3353,73.17,11,85,10.54,overcast clouds
372,Alta Floresta,BR,-9.8756,-56.0861,71.37,95,93,2.26,overcast clouds
373,Waipawa,NZ,-41.4122,175.5153,58.46,71,100,13.53,overcast clouds
374,Gigmoto,PH,13.7796,124.39,79.14,78,82,9.66,broken clouds
375,Merefa,UA,49.8197,36.0519,21.78,92,7,5.91,clear sky
376,Frankfort,ZA,-27.2667,28.4833,62.53,71,54,8.81,broken clouds
377,Kochubey,RU,44.3861,46.5825,30.2,69,0,2.44,clear sky
378,Khash,IR,28.2211,61.2158,45.36,66,73,6.53,broken clouds
379,Fallon,US,39.4735,-118.7774,68.41,16,40,4.61,scattered clouds
380,Havre-Saint-Pierre,CA,50.2334,-63.5986,-0.92,77,11,10.4,few clouds
381,Mazatan,MX,14.8667,-92.45,84.27,61,40,0.0,scattered clouds
382,Pagudpud,PH,18.5616,120.7868,78.67,73,51,2.08,broken clouds
383,Novoorsk,RU,51.381,58.9813,7.47,94,73,8.19,broken clouds
384,Hamilton,US,39.1834,-84.5333,23.74,83,100,14.97,mist
385,Iwanai,JP,42.9744,140.5089,30.16,86,77,3.31,broken clouds
386,Victoria,HK,22.2855,114.1577,60.94,83,100,8.01,overcast clouds
387,Tirumullaivasal,IN,11.2333,79.8333,76.19,77,59,8.93,broken clouds
388,Palmer,US,42.1584,-72.3287,28.22,55,100,11.5,overcast clouds
389,Andilamena,MG,-17.0167,48.5833,65.86,90,60,4.27,broken clouds
390,Amparafaravola,MG,-17.5833,48.2167,67.15,95,52,1.83,broken clouds
391,Vammala,FI,61.3333,22.9,36.84,98,100,10.98,overcast clouds
392,Flinders,AU,-34.5833,150.8552,82.06,60,100,5.99,overcast clouds
393,Jiwani,PK,25.05,61.7417,70.61,70,99,4.5,overcast clouds
394,Vaitape,PF,-16.5167,-151.75,80.92,75,100,14.52,light rain
395,Alekseyevsk,RU,57.8406,108.3492,-32.13,100,68,1.01,broken clouds
396,Acari,PE,-15.4311,-74.6158,74.16,74,21,5.19,few clouds
397,Tasiilaq,GL,65.6145,-37.6368,21.36,93,100,16.84,light snow
398,Am Timan,TD,11.0297,20.2827,76.73,16,82,6.82,broken clouds
399,Dhidhdhoo,MV,6.8833,73.1,80.56,73,99,3.65,overcast clouds
400,Vila Franca Do Campo,PT,37.7167,-25.4333,59.2,73,36,4.63,scattered clouds
401,High Level,CA,58.5169,-117.136,1.54,96,31,3.22,scattered clouds
402,Berlevag,NO,70.8578,29.0864,21.9,90,100,11.92,light snow
403,Port Harcourt,NG,4.7774,7.0134,80.91,78,29,6.35,scattered clouds
404,Coaticook,CA,45.1334,-71.7991,11.35,83,92,4.14,overcast clouds
405,Aksarka,RU,66.5606,67.7975,-11.92,99,100,1.79,overcast clouds
406,Olafsvik,IS,64.8945,-23.7142,32.61,73,100,15.1,overcast clouds
407,Rehoboth,NA,-23.3167,17.0833,67.01,78,95,4.9,overcast clouds
408,Pangnirtung,CA,66.1451,-65.7125,-35.46,93,83,5.95,broken clouds
409,Praia,CV,14.9215,-23.5087,71.94,75,69,16.58,broken clouds
410,Rorvik,NO,64.8621,11.2373,36.19,52,100,18.32,overcast clouds
411,Inirida,CO,3.8653,-67.9239,81.28,65,84,1.86,broken clouds
412,Vihti,FI,60.417,24.3197,36.55,95,100,13.0,light rain
413,San Cristobal,VE,7.7669,-72.225,73.58,73,63,0.87,broken clouds
414,Gravdal,NO,68.1214,13.5031,33.46,57,86,23.4,snow
415,Tessalit,ML,20.1986,1.0114,62.44,21,13,11.68,few clouds
416,Zemes,RO,46.5833,26.4167,23.83,83,97,3.67,overcast clouds
417,North Bend,US,43.4065,-124.2243,58.24,90,75,5.75,broken clouds
418,Grindavik,IS,63.8424,-22.4338,28.87,100,75,12.66,broken clouds
419,Fortuna Foothills,US,32.6578,-114.4119,84.22,10,0,5.75,clear sky
420,Bunbury,AU,-33.3333,115.6333,67.82,55,0,12.24,clear sky
421,San Quintin,MX,30.4833,-115.95,72.81,28,4,10.87,clear sky
422,Port Blair,IN,11.6667,92.75,73.15,73,56,7.9,broken clouds
423,Namibe,AO,-15.1961,12.1522,74.48,82,98,1.99,overcast clouds
424,Sao Felix Do Xingu,BR,-6.6447,-51.995,69.73,93,95,1.54,overcast clouds
425,Nanlong,CN,31.3533,106.0631,44.49,78,74,2.62,broken clouds
426,Yumen,CN,40.2833,97.2,23.04,51,95,11.21,overcast clouds
427,Bowen,AU,-20.0167,148.2333,82.17,65,36,18.95,scattered clouds
428,Cordoba,AR,-31.4135,-64.1811,70.43,80,0,4.61,clear sky
429,Maple Creek,CA,49.9168,-109.4848,36.73,54,79,10.07,broken clouds
430,Pyshma,RU,56.9523,63.2513,2.93,100,96,4.43,overcast clouds
431,Asau,RO,46.4333,26.4,28.96,83,100,3.96,overcast clouds
432,Cawayan,PH,9.9718,122.6249,79.25,79,100,6.26,overcast clouds
433,Foso,GH,5.7012,-1.2866,75.22,90,91,2.93,overcast clouds
434,Plettenberg Bay,ZA,-34.0527,23.3716,67.32,87,54,5.64,light rain
435,Meadow Lake,US,34.8014,-106.5436,56.64,15,0,3.09,clear sky
436,Balabac,PH,7.9868,117.0645,81.09,77,100,11.61,overcast clouds
437,Wanaka,NZ,-44.7,169.15,66.11,49,14,3.0,few clouds
438,Chifeng,CN,42.2683,118.9636,3.61,90,95,3.76,overcast clouds
439,Laguna,US,38.421,-121.4238,79.65,36,0,3.44,clear sky
440,Oistins,BB,13.0667,-59.5333,77.09,73,40,16.11,scattered clouds
441,Borujerd,IR,33.8973,48.7516,37.09,63,0,1.79,clear sky
442,Aitape,PG,-3.1374,142.3475,81.21,81,100,3.78,overcast clouds
443,Broken Hill,AU,-31.95,141.4333,90.0,22,67,16.33,broken clouds
444,Port Keats,AU,-14.25,129.55,77.02,84,95,4.85,overcast clouds
445,Ostrovnoy,RU,68.0531,39.5131,21.4,62,100,26.31,overcast clouds
446,Forio,IT,40.7342,13.8646,54.43,85,14,1.99,few clouds
447,Wageningen,NL,51.9667,5.6667,52.93,72,100,12.66,overcast clouds
448,Moron,AR,-34.6534,-58.6198,75.97,43,0,5.28,clear sky
449,Abashiri,JP,44.0213,144.2697,23.47,94,100,5.97,light snow
450,Mackay,AU,-21.15,149.2,82.69,72,44,22.21,scattered clouds
451,Mirnyy,RU,62.5353,113.9611,-17.77,75,98,4.0,overcast clouds
452,Xinqing,CN,48.2333,129.5,-5.85,99,99,0.74,overcast clouds
453,Limbang,MY,4.75,115.0,78.91,90,92,1.86,overcast clouds
454,Mirador,BR,-6.3708,-44.3631,74.57,91,100,2.57,overcast clouds
455,Neuquen,AR,-38.9516,-68.0591,80.49,41,0,0.0,clear sky
456,Jiaohe,CN,43.7286,127.3447,8.55,89,100,5.37,overcast clouds
457,Biak,ID,-0.9131,122.8766,76.87,81,98,2.64,overcast clouds
458,Carbonear,CA,47.7332,-53.2148,35.26,67,78,6.2,broken clouds
459,Calamar,CO,10.2511,-74.9146,80.55,55,73,11.23,broken clouds
460,Zyryanka,RU,65.75,150.85,-27.58,93,16,6.93,few clouds
461,Tiarei,PF,-17.5333,-149.3333,87.82,76,79,16.73,light rain
462,Aykhal,RU,66.0,111.5,-8.68,52,52,1.3,broken clouds
463,Evensk,RU,61.95,159.2333,1.51,71,25,9.28,scattered clouds
464,Bundaberg,AU,-24.85,152.35,77.7,73,21,17.05,few clouds
465,Jasper,US,37.2001,-94.3502,38.55,42,0,6.91,clear sky
466,Carson City,US,39.1638,-119.7674,68.83,14,0,10.36,clear sky
467,Arman,RU,59.7,150.1667,-2.87,78,55,9.26,broken clouds
468,Kavieng,PG,-2.5744,150.7967,82.45,78,75,7.4,moderate rain
469,Zheleznodorozhnyy,RU,55.7503,38.0042,28.92,86,100,10.36,light snow
470,Pisco,PE,-13.7,-76.2167,69.85,73,0,18.41,clear sky
471,Mitzic,GA,0.7821,11.549,68.2,98,83,2.8,broken clouds
472,Ponta Delgada,PT,37.7333,-25.6667,59.5,67,75,8.05,broken clouds
473,Iwaki,JP,37.05,140.8833,40.33,78,100,3.0,overcast clouds
474,Hailey,US,43.5196,-114.3153,40.89,62,0,4.61,clear sky
475,Khandyga,RU,62.6667,135.6,-36.0,98,88,2.08,overcast clouds
476,Raduzhnyy,RU,62.0961,77.475,-5.48,98,84,8.88,broken clouds
477,Bathsheba,BB,13.2167,-59.5167,77.61,73,40,16.11,scattered clouds
478,Gornopravdinsk,RU,60.05,69.9,4.46,96,100,3.74,overcast clouds
479,Zhanaozen,KZ,43.3,52.8,26.98,86,53,7.74,broken clouds
480,Bettiah,IN,26.8,84.5,53.26,78,0,3.69,clear sky
481,Hede,CN,33.7681,120.2517,38.8,74,7,5.17,light rain
482,Portland,US,45.5234,-122.6762,64.33,50,100,1.01,overcast clouds
483,Atbasar,KZ,51.8,68.3333,9.95,96,100,8.5,overcast clouds
484,Verkhnevilyuysk,RU,63.4453,120.3167,-22.79,100,100,1.81,overcast clouds
485,Torzhok,RU,57.0436,34.9622,25.77,84,100,11.43,overcast clouds
486,Wawa,NG,9.9022,4.4192,80.76,21,9,5.28,clear sky
487,Henties Bay,NA,-22.116,14.2845,72.86,86,60,3.94,light rain
488,Souillac,MU,-20.5167,57.5167,81.36,89,40,9.22,light rain
489,Zagare,LT,56.3592,23.25,32.76,77,100,12.88,overcast clouds
490,Ust-Omchug,RU,61.15,149.6333,-25.24,95,62,4.41,broken clouds
491,Jiuquan,CN,39.7432,98.5174,23.63,59,100,4.12,overcast clouds
492,Iralaya,HN,15.0,-83.2333,76.53,82,5,10.09,clear sky
493,Union,US,40.6334,-74.2663,31.32,76,100,8.05,overcast clouds
494,Sao Gabriel Da Cachoeira,BR,-0.1303,-67.0892,73.83,97,98,2.35,moderate rain
495,Christchurch,NZ,-43.5333,172.6333,62.94,74,100,11.5,overcast clouds
496,Douglas,US,41.3,-96.167,30.88,41,0,9.22,clear sky
497,Banda Aceh,ID,5.5577,95.3222,77.63,77,30,6.11,scattered clouds
498,Wilmington,US,34.2257,-77.9447,49.95,81,100,3.44,overcast clouds
499,Bhimunipatnam,IN,17.8833,83.4333,63.91,66,8,4.54,clear sky
500,Pathein,MM,16.7833,94.7333,60.93,78,54,3.96,broken clouds
501,Timbiqui,CO,2.7717,-77.6654,74.3,92,100,0.69,light rain
502,Constitucion,CL,-35.3333,-72.4167,60.48,88,57,5.48,broken clouds
503,Huty,UA,50.1332,35.3439,24.1,85,9,7.31,clear sky
504,Malakal,SS,9.5334,31.6605,79.21,16,9,8.57,clear sky
505,Panjab,AF,34.388,67.0233,16.88,96,100,3.67,overcast clouds
506,Bouca,CF,6.5105,18.2733,73.74,23,100,1.45,overcast clouds
507,Bad Bevensen,DE,53.0833,10.5833,45.05,67,100,13.33,overcast clouds
508,Santa Rosa,PH,14.3122,121.1114,79.11,81,74,7.61,broken clouds
509,Katsuura,JP,35.1333,140.3,42.12,74,100,26.84,overcast clouds
510,Santa Lucia,ES,27.9117,-15.5407,56.52,68,20,13.8,few clouds
511,Manokwari,ID,-0.8667,134.0833,81.32,69,100,3.83,overcast clouds
512,Yaan,NG,7.3833,8.5667,81.21,13,98,2.89,overcast clouds
513,Sawtell,AU,-30.3833,153.1,72.19,85,100,14.97,overcast clouds
514,San Patricio,US,28.017,-97.5169,63.28,32,30,2.15,scattered clouds
515,Kabalo,CD,-6.05,26.9167,69.31,95,100,2.91,overcast clouds
516,Rawson,AR,-43.3002,-65.1023,77.95,27,1,21.81,clear sky
517,Medicine Hat,CA,50.0501,-110.6683,44.22,45,94,1.01,overcast clouds
518,Ahuimanu,US,21.4447,-157.8378,82.11,52,20,14.97,few clouds
519,San Policarpo,PH,12.1791,125.5072,79.88,77,98,12.57,overcast clouds
520,Sarangani,PH,5.4033,125.4636,81.45,73,100,19.13,overcast clouds
521,Comodoro Rivadavia,AR,-45.8667,-67.5,62.46,51,0,12.66,clear sky
522,Tiznit,MA,29.5833,-9.5,53.87,52,0,3.47,clear sky
523,Boulsa,BF,12.6675,-0.5758,75.6,12,5,9.42,clear sky
524,Samdrup Jongkhar,BT,26.9167,91.6167,47.14,54,0,5.82,clear sky
525,Srednekolymsk,RU,67.45,153.6833,-28.14,97,22,6.15,few clouds
526,Cedar City,US,37.6775,-113.0619,59.97,13,0,0.0,clear sky
527,Sibu,MY,2.3,111.8167,75.51,100,40,0.0,scattered clouds
528,Dauphin,CA,51.1494,-100.0502,-7.46,77,0,6.91,clear sky
529,Gimli,CA,50.6336,-96.9907,0.12,96,100,7.78,overcast clouds
530,Sembakung,ID,3.8167,117.25,78.73,92,94,1.88,overcast clouds
531,Tsiroanomandidy,MG,-18.7667,46.0333,69.22,88,57,4.9,broken clouds
532,La Ronge,CA,55.1001,-105.2842,14.25,73,75,6.91,broken clouds
533,Kingman,US,35.1894,-114.053,73.11,6,0,8.05,clear sky
534,Liuzhou,CN,24.3126,109.3892,42.89,86,0,5.06,clear sky
535,Puerto Leguizamo,CO,-0.1934,-74.7819,73.92,94,98,3.47,moderate rain
536,Saint-Marc,HT,19.1082,-72.6938,78.89,73,4,6.29,clear sky
537,Vanavara,RU,60.34,102.2797,-24.05,99,27,4.79,scattered clouds
538,Uige,AO,-7.6087,15.0613,66.33,99,100,1.36,moderate rain
539,Rensvik,NO,63.1,7.8167,35.26,86,100,19.57,overcast clouds
540,Villamontes,BO,-21.25,-63.5,71.33,69,60,1.39,broken clouds
541,Muroto,JP,33.2833,134.15,46.44,65,98,19.04,heavy intensity rain
542,Guaranda,EC,-1.6,-79.0,55.0,97,100,3.04,light rain
543,Kawerau,NZ,-38.1,176.7,74.23,52,19,1.99,few clouds
544,Nishihara,JP,26.1842,127.7558,64.06,88,75,26.46,broken clouds
545,Mitsamiouli,KM,-11.3847,43.2844,80.92,79,2,5.88,clear sky
546,Vestmanna,FO,62.1564,-7.1664,32.92,60,100,12.66,overcast clouds
547,Port-Gentil,GA,-0.7193,8.7815,80.76,77,100,7.2,overcast clouds
548,Niamey,NE,13.5137,2.1098,77.29,18,2,2.3,dust
549,Bandarbeyla,SO,9.4942,50.8122,73.89,72,20,12.46,few clouds
550,Nantucket,US,41.2835,-70.0995,36.14,89,100,20.11,snow
551,Aklavik,CA,68.2191,-135.0107,-26.57,97,100,9.35,light snow
552,Janakkala,FI,60.9,24.6,35.67,97,100,10.09,overcast clouds
553,Kirkwall,GB,58.9848,-2.9587,41.05,93,100,8.05,overcast clouds
554,Nabinagar,BD,23.8917,90.9733,60.87,74,0,5.95,clear sky
555,Millau,FR,44.0833,2.9167,48.4,93,100,11.05,overcast clouds
556,Gusau,NG,12.1628,6.6614,71.49,14,2,9.82,clear sky
557,Erenhot,CN,43.6475,111.9767,-8.63,95,12,1.05,few clouds
558,Orange Cove,US,36.6244,-119.3137,81.61,29,3,3.4,clear sky
559,Labuhan,ID,-6.8844,112.2051,76.39,90,100,5.75,light rain
560,Sibolga,ID,1.7427,98.7792,75.22,88,77,3.62,broken clouds
561,Scarborough,GB,54.2797,-0.4044,46.65,87,100,5.99,overcast clouds
562,Shaoyang,CN,27.2315,111.4525,38.26,91,37,1.83,scattered clouds
563,Iracoubo,GF,5.4802,-53.2011,76.23,90,66,8.57,broken clouds
564,Pingshan,CN,22.9938,114.7131,55.89,84,87,7.0,overcast clouds
565,Bull Savanna,JM,17.8868,-77.5902,75.33,74,39,8.23,scattered clouds
566,Netrakona,BD,24.8833,90.7167,54.95,71,0,5.17,clear sky
567,Fuxin,CN,42.0156,121.6589,8.17,82,100,11.52,overcast clouds
568,Luba,GQ,3.4568,8.5547,80.15,83,100,7.36,light rain
569,Filingue,NE,14.3521,3.3168,73.94,11,2,5.35,clear sky
570,Leshukonskoye,RU,64.8989,45.7622,-0.74,98,83,4.99,broken clouds
571,Sandakan,MY,5.8402,118.1179,78.48,89,20,3.44,few clouds
572,Zhangye,CN,38.9342,100.4517,24.94,76,100,10.2,overcast clouds
573,Daru,PG,-9.0763,143.2092,85.03,62,33,10.67,scattered clouds
574,Katherine,AU,-14.4667,132.2667,84.52,65,0,0.0,clear sky
575,Bacong,PH,9.2464,123.2956,78.84,87,100,9.73,overcast clouds
576,Anqiu,CN,36.4342,119.1925,30.29,83,92,13.73,overcast clouds
577,Kahului,US,20.8947,-156.47,80.62,65,40,16.11,scattered clouds
578,Kamenka,RU,51.3223,42.7678,5.88,97,19,6.31,few clouds
579,Taksimo,RU,56.3444,114.8794,-27.24,91,24,1.34,few clouds
580,Novikovo,RU,51.1537,37.8879,12.24,93,25,5.55,scattered clouds
581,Bose,IT,45.4612,8.0137,40.24,69,91,1.19,overcast clouds
582,Naldurg,IN,17.8167,76.3,67.12,32,16,8.86,few clouds
583,Soyo,AO,-6.1349,12.3689,78.44,87,95,6.02,overcast clouds
584,Kirkenaer,NO,60.4564,12.0582,38.68,98,100,7.67,light rain
585,Tweed,CA,44.4751,-77.3162,9.14,73,99,5.55,overcast clouds
586,Cornelio Procopio,BR,-23.1811,-50.6467,83.03,81,19,2.08,few clouds
587,Zabol,AF,32.25,67.25,40.86,48,99,5.21,overcast clouds
588,Molokovo,RU,58.1661,36.7628,24.94,88,100,11.18,snow
589,Turukhansk,RU,65.8167,87.9833,-6.77,89,45,11.68,scattered clouds
590,Sept-Iles,CA,50.2001,-66.3821,-2.94,72,20,4.61,few clouds
591,Contamana,PE,-7.3333,-75.0167,73.71,96,100,2.59,light rain
592,Bucksport,US,44.5737,-68.7956,21.07,44,99,8.52,overcast clouds
593,Luganville,VU,-15.5333,167.1667,83.34,79,100,9.95,overcast clouds
594,Doha,QA,25.2867,51.5333,62.58,65,0,10.36,clear sky
595,Sarkand,KZ,45.41,79.9186,25.59,77,100,5.17,overcast clouds
596,Batagay,RU,67.6333,134.6333,-21.33,92,99,2.93,overcast clouds
597,Changping,CN,40.2186,116.2197,17.24,67,2,7.7,clear sky
598,Piranhas,BR,-16.4269,-51.8222,72.46,94,39,3.2,moderate rain
599,Zabolotovka,RU,50.2737,39.3147,8.89,97,32,4.36,scattered clouds
600,Lerwick,GB,60.1545,-1.1494,41.0,88,100,7.9,overcast clouds
601,Trinidad,BO,-14.8333,-64.9,72.72,87,91,2.26,overcast clouds
602,Tocopilla,CL,-22.092,-70.1979,70.2,72,73,7.45,broken clouds
603,Isangel,VU,-19.55,169.2667,85.01,71,89,10.31,overcast clouds
604,Gambela,ET,8.25,34.5833,81.52,40,50,2.84,scattered clouds
605,Ilulissat,GL,69.2167,-51.1,8.62,72,75,23.02,light shower snow
606,Wamba,NG,8.9333,8.6,74.3,15,47,3.94,scattered clouds
607,Faya,SA,18.3851,42.4509,48.72,57,66,1.19,broken clouds
608,Roebourne,AU,-20.7833,117.1333,89.8,48,49,7.31,scattered clouds
609,Tazovskiy,RU,67.4667,78.7,-8.9,95,51,9.84,broken clouds
610,Saint-Pierre,RE,-21.3393,55.4781,78.48,89,20,17.27,few clouds
611,Homer,US,59.6425,-151.5483,37.8,82,40,5.01,scattered clouds
612,Vanimo,PG,-2.6741,141.3028,80.85,85,92,2.71,overcast clouds
613,Narasapur,IN,16.45,81.6667,65.08,89,8,5.17,clear sky
614,Ambulu,ID,-8.345,113.6058,76.89,89,93,1.7,light rain
615,Xifeng,CN,42.7372,124.7222,10.33,83,100,12.24,light snow
616,Manaus,BR,-3.1019,-60.025,79.3,94,75,2.3,light rain
617,Naples,IT,40.8333,14.25,54.75,83,40,1.99,scattered clouds
618,Poso,ID,-1.3959,120.7524,77.72,81,100,3.96,overcast clouds
619,Launceston,AU,-41.45,147.1667,71.8,69,40,6.91,scattered clouds
620,Denpasar,ID,-8.65,115.2167,80.26,88,20,3.44,few clouds
621,Tigre,AR,-34.426,-58.5796,76.23,48,0,4.61,clear sky
622,Altamirano,MX,16.8833,-92.15,51.08,100,99,4.09,overcast clouds
623,Belmonte,BR,-15.8631,-38.8828,79.3,88,94,6.53,overcast clouds
624,Loralai,PK,30.3705,68.598,46.02,41,41,1.63,scattered clouds
625,Pinhal Novo,PT,38.6311,-8.9138,55.17,87,20,4.61,few clouds
626,Mount Isa,AU,-20.7333,139.5,85.77,54,100,14.97,overcast clouds
627,Mumford,GH,5.2618,-0.759,79.52,85,79,9.22,broken clouds
628,Jevnaker,NO,60.2414,10.385,38.1,99,100,3.24,light rain
629,Del Rio,US,29.3627,-100.8968,68.11,18,0,6.91,clear sky
630,Leh,IN,34.1667,77.5833,0.19,87,84,2.33,broken clouds
631,Omboue,GA,-1.5746,9.2618,78.08,84,97,3.91,overcast clouds
632,Mae Hong Son,TH,19.3003,97.9685,50.14,93,24,2.3,few clouds
633,Janja,BA,44.6653,19.2478,32.67,81,15,3.31,few clouds
634,Biloela,AU,-24.4167,150.5,83.77,44,3,16.8,clear sky
635,Shelburne,CA,44.0787,-80.2041,11.12,78,100,4.34,overcast clouds
636,Kizema,RU,61.113,44.8302,11.35,94,92,6.67,light snow
637,Kudahuvadhoo,MV,2.6708,72.8944,81.36,75,100,8.34,overcast clouds
638,Magdalena,PH,14.1999,121.429,78.19,82,93,5.19,overcast clouds
639,Calvinia,ZA,-31.4707,19.776,71.94,57,26,5.59,scattered clouds
640,Mount Gambier,AU,-37.8333,140.7667,69.78,60,61,8.55,broken clouds
641,Qui Nhon,VN,13.7667,109.2333,75.29,90,97,11.18,overcast clouds
642,Livingston,GB,55.9029,-3.5226,41.18,99,100,1.14,drizzle
643,Singaraja,ID,-8.112,115.0882,79.97,84,100,1.52,light rain
644,Grand-Santi,GF,4.25,-54.3833,72.57,99,52,2.71,moderate rain
645,Cap-Chat,CA,49.1001,-66.6821,-2.2,78,67,8.05,broken clouds
646,Dokka,NO,60.84,10.0618,37.06,97,100,1.07,light rain
647,Juan Lacaze,UY,-34.4342,-57.4381,68.11,53,1,14.72,clear sky
648,Kuytun,RU,54.3419,101.5036,-27.99,100,100,3.13,overcast clouds
649,Inuvik,CA,68.3499,-133.7218,-26.54,75,100,2.3,light snow
650,Porbandar,IN,21.6422,69.6093,66.04,73,0,7.85,clear sky
651,Teya,RU,60.3778,92.6267,-21.91,100,22,3.42,few clouds
652,Cagliari,IT,39.245,9.0912,49.91,81,40,15.99,mist
653,Soe,ID,-9.8607,124.284,73.13,73,69,3.36,broken clouds
654,Catuday,PH,16.2923,119.8062,77.63,79,55,9.78,broken clouds
655,Ixtapa,MX,20.7,-105.2,76.23,65,75,3.44,broken clouds
656,Minab,IR,27.1467,57.0801,60.3,57,52,11.3,broken clouds
657,Kirakira,SB,-10.4544,161.9205,79.18,88,97,6.11,overcast clouds
658,Thunder Bay,CA,48.4001,-89.3168,2.55,67,75,1.14,broken clouds
659,Wenling,CN,28.3669,121.36,47.91,83,75,10.4,broken clouds
660,Santa Maria,BR,-29.6842,-53.8069,65.28,34,0,3.27,clear sky
661,Te Anau,NZ,-45.4167,167.7167,64.27,49,64,1.07,broken clouds
662,Ola,RU,59.5833,151.2833,1.06,74,84,9.08,broken clouds
663,Strezhevoy,RU,60.7333,77.5889,-5.03,95,98,9.4,overcast clouds
664,Kodar,IN,16.9833,79.9667,65.59,95,6,4.0,clear sky
665,Soroti,UG,1.7146,33.6111,72.16,45,98,2.28,overcast clouds
666,Auki,SB,-8.7676,160.7034,77.47,90,100,4.54,overcast clouds
667,Sur,OM,22.5667,59.5289,70.83,68,0,11.83,clear sky
668,La Libertad,EC,-2.2333,-80.9,80.26,65,0,9.22,clear sky
669,Uyuni,BO,-20.4597,-66.825,56.8,53,74,15.43,broken clouds
670,Trelew,AR,-43.249,-65.3051,80.67,20,1,20.98,clear sky
671,Killybegs,IE,54.6333,-8.45,41.45,87,100,13.87,moderate rain
672,Chuguyevka,RU,44.1653,133.8633,2.77,94,100,0.38,overcast clouds
673,Kimberley,ZA,-28.7323,24.7623,60.49,77,2,3.44,clear sky
674,Cam Ranh,VN,11.9214,109.1591,76.96,83,40,5.75,scattered clouds
675,Rapid City,US,44.0805,-103.231,49.3,37,0,19.57,clear sky
676,Paamiut,GL,61.994,-49.6678,12.0,86,100,18.14,light snow
677,Bielsk Podlaski,PL,52.7651,23.1865,29.01,66,6,11.92,clear sky
678,Cayenne,GF,4.9333,-52.3333,80.1,85,0,5.01,clear sky
679,Santiago Del Estero,AR,-27.7951,-64.2615,72.59,34,0,7.9,clear sky
680,Baherden,TM,38.4362,57.4316,40.37,92,50,12.8,scattered clouds
681,Ardakan,IR,32.31,54.0175,41.38,46,0,5.88,clear sky
682,Gupitan,PH,7.7758,125.6406,77.02,86,95,4.79,overcast clouds
683,Gondanglegi,ID,-7.7479,112.0132,74.16,95,100,4.41,light rain
684,Danilovka,RU,50.3557,44.1168,8.91,97,32,5.79,scattered clouds
685,Mezen,RU,65.8522,44.24,2.44,94,79,7.27,broken clouds
686,Zeya,RU,53.75,127.2667,3.67,83,100,4.14,overcast clouds
687,Itarema,BR,-2.9248,-39.9167,79.68,80,12,14.03,few clouds
688,Beloha,MG,-25.1667,45.05,74.12,89,12,8.3,few clouds
689,Naze,JP,28.3667,129.4833,56.32,86,100,18.48,light rain
690,Hofn,IS,64.2539,-15.2082,22.33,64,16,9.17,few clouds
691,Atar,MR,20.5169,-13.0499,66.47,20,88,7.31,overcast clouds
692,Chitral,PK,35.8462,71.7858,34.83,82,100,5.32,overcast clouds
693,Palana,RU,59.1167,159.9667,1.72,85,94,6.64,overcast clouds
694,Shu,KZ,43.5983,73.7614,28.83,88,100,0.89,snow
695,Naryan-Mar,RU,67.6713,53.087,-1.7,98,49,9.13,scattered clouds
696,Ucluelet,CA,48.9329,-125.5528,50.09,69,99,8.75,overcast clouds
697,Junin,AR,-34.5838,-60.9433,62.78,47,0,2.01,clear sky
698,Macas,EC,-2.3167,-78.1167,69.13,96,98,1.36,light rain
699,Nyagan,RU,62.1406,65.3936,-13.86,100,96,1.61,overcast clouds
700,Sinnamary,GF,5.3833,-52.95,76.48,90,76,9.06,broken clouds
701,Kodinsk,RU,58.6881,99.1844,-22.99,100,39,3.27,scattered clouds
702,Cabedelo,BR,-6.9811,-34.8339,83.07,76,6,11.36,clear sky
703,Fort Smith,US,35.3859,-94.3986,48.24,33,0,9.22,clear sky
704,Cadillac,US,44.2519,-85.4012,8.94,43,0,0.0,clear sky
705,Maun,BW,-19.9833,23.4167,69.13,77,6,2.21,clear sky
706,Camopi,GF,3.1655,-52.3158,73.0,99,99,2.57,overcast clouds
707,Gursahaiganj,IN,27.1167,79.7167,52.21,66,0,0.51,clear sky
708,Guatire,VE,10.4762,-66.5427,68.02,94,74,2.62,broken clouds
709,Newport,GB,51.5877,-2.9984,47.44,85,100,1.99,overcast clouds
710,Buala,SB,-8.145,159.5921,81.97,79,95,7.9,light rain
711,Ilinge,ZA,-31.9768,27.0427,63.5,93,83,5.35,light rain
712,Katav-Ivanovsk,RU,54.7531,58.1956,9.41,98,100,2.93,overcast clouds
